[
  {
    "id": 1,
    "place": "Kuala Lumpur, Malaysia",
    "status": "Base",
    "description": "Current operational base and digital nomad headquarters."
  },
  {
    "id": 2,
    "place": "Bali, Indonesia",
    "status": "Visited",
    "description": "Where my passport gained its first stamp and unforgettable memories began."
  },
  {
    "id": 3,
    "place": "Chiang Mai, Thailand",
    "status": "Visited",
    "description": "Conquered my first 13,000-ft skydive, experienced adventure sports, and captured 200+ travel moments."
  },
  {
    "id": 4,
    "place": "TBC..",
    "status": "Planned",
    "description": "Upcoming trip"
  },
  {
    "id": 5,
    "place": "伦敦，英国",
    "status": "Planned",
    "description": "计划后年出发，去看大本钟！",
    "latitude": "51.50",
    "longitude": "-0.12",
    "date": "2026-07-10",
    "media_url": ""
  },
  {
    "id": 6,
    "place": "Paris, Île-de-France",
    "status": "Visited",
    "description": "漫步在埃菲尔铁塔下，塞纳河畔的微风很舒服。",
    "latitude": "48.85",
    "longitude": "2.32",
    "date": "2026-07-10",
    "media_url": ""
  },
  {
    "id": 7,
    "place": "New York, United States",
    "status": "Planned",
    "description": "自由女神很漂亮，象征着美国梦。",
    "latitude": "40.72",
    "longitude": "-74.00",
    "date": "2026-07-10",
    "media_url": ""
  },
  {
    "id": 8,
    "place": "กรุงเทพมหานคร, ประเทศไทย",
    "status": "Visited",
    "description": "体验了疯狂的突突车，路边摊的冬阴功汤太正宗了！",
    "latitude": "13.76",
    "longitude": "100.49",
    "date": "2026-07-10",
    "media_url": ""
  },
  {
    "id": 9,
    "place": "福岡, 福岡停車場線",
    "status": "Visited",
    "description": "抓内鬼测试",
    "latitude": "36.70",
    "longitude": "136.94",
    "date": "2026-07-10",
    "media_url": ""
  },
  {
    "id": 10,
    "place": "Roma, Roma Capitale",
    "status": "Visited",
    "description": "抓内鬼测试",
    "latitude": "41.90",
    "longitude": "12.48",
    "date": "2026-07-10",
    "media_url": ""
  },
  {
    "id": 11,
    "place": "Berlin, Deutschland",
    "status": "Planned",
    "description": "听说非常现代化？",
    "latitude": "52.52",
    "longitude": "13.40",
    "date": "2026-07-10",
    "media_url": ""
  }
]
